city_name,country,date,lat,lon,max_temp_C,cloud_cover%,humidity%
Sorong,ID,1609877909,-0.8833,131.25,26.170000000000016,100.0,84.0
Kapaa,US,1609877909,22.0752,-159.319,24.0,90.0,73.0
Hay River,CA,1609877910,60.8156,-115.7999,-17.99999999999997,75.0,77.0
Punta Arenas,CL,1609877910,-53.15,-70.9167,14.0,75.0,50.0
Hilo,US,1609877809,19.7297,-155.09,24.0,1.0,60.0
Rikitea,PF,1609877911,-23.1203,-134.9692,24.870000000000005,0.0,77.0
Qaanaaq,GL,1609877911,77.484,-69.3632,-14.419999999999959,100.0,81.0
Simões,BR,1609877911,-7.5989,-40.8178,33.910000000000025,26.0,25.0
Viedma,AR,1609877912,-40.8135,-62.9967,25.0,39.0,48.0
Bluff,NZ,1609877912,-46.6,168.3333,10.0,40.0,94.0
Vilyuysk,RU,1609877912,63.7553,121.6247,-33.70999999999998,100.0,85.0
Vaini,TO,1609877913,-21.2,-175.2,26.0,40.0,94.0
Walvis Bay,NA,1609877913,-22.9575,14.5053,21.0,100.0,83.0
Tiassalé,CI,1609877914,5.8983,-4.8283,25.03000000000003,75.0,91.0
Severo-Kuril'sk,RU,1609877914,50.6789,156.125,-9.139999999999986,75.0,84.0
San Patricio,US,1609877914,28.017,-97.5169,23.0,40.0,78.0
Lebu,CL,1609877914,-37.6167,-73.65,15.920000000000016,0.0,70.0
Yangi Marg`ilon,UZ,1609877915,40.4272,71.7189,-5.0,90.0,79.0
Cape Town,ZA,1609877294,-33.9258,18.4232,21.110000000000014,20.0,82.0
Hermanus,ZA,1609877915,-34.4187,19.2345,16.110000000000014,0.0,89.0
Butaritari,KI,1609877915,3.0707,172.7902,27.379999999999995,44.0,74.0
Ust-Nera,RU,1609877916,64.5667,143.2,-28.889999999999986,100.0,77.0
Avarua,CK,1609877916,-21.2078,-159.775,28.0,28.0,78.0
Luau,AO,1609877916,-10.7073,22.2247,18.920000000000016,100.0,96.0
Airai,TL,1609877916,-8.9266,125.4092,16.27000000000004,100.0,100.0
East London,ZA,1609877916,-33.0153,27.9116,22.340000000000032,100.0,84.0
Wuhu,CN,1609877916,31.3366,118.3755,2.0,90.0,64.0
Derzhavīnsk,KZ,1609877917,51.1,66.3167,-22.67999999999998,0.0,88.0
Nikolskoye,RU,1609877917,59.7035,30.7861,-1.0,90.0,86.0
Albany,US,1609877744,42.6001,-73.9662,1.670000000000016,96.0,79.0
Rabo de Peixe,PT,1609877917,37.8,-25.5833,13.0,75.0,93.0
Husavik,IS,1609877917,66.0449,-17.3389,0.0,40.0,92.0
Yerofey Pavlovich,RU,1609877918,53.9667,121.9667,-32.849999999999966,32.0,80.0
Timmins,CA,1609877779,48.4669,-81.3331,0.0,90.0,97.0
Mount Gambier,AU,1609877918,-37.8333,140.7667,13.0,90.0,82.0
Gigmoto,PH,1609877918,13.7796,124.39,25.840000000000032,21.0,84.0
Guerrero Negro,MX,1609877918,27.9769,-114.0611,20.920000000000016,76.0,47.0
Shahe,CN,1609877919,39.2708,113.5478,-15.939999999999998,58.0,75.0
Hobart,AU,1609877769,-42.8794,147.3294,14.439999999999998,75.0,76.0
Arraial do Cabo,BR,1609877919,-22.9661,-42.0278,30.0,20.0,74.0
Bambous Virieux,MU,1609877919,-20.3428,57.7575,25.0,40.0,83.0
Tasiilaq,GL,1609877919,65.6145,-37.6368,-7.0,40.0,52.0
Dikson,RU,1609877920,73.5069,80.5464,-9.639999999999986,100.0,97.0
Vitim,RU,1609877920,59.4511,112.5578,-30.119999999999976,100.0,81.0
Nanortalik,GL,1609877920,60.1432,-45.2371,-3.349999999999966,0.0,91.0
Russell,US,1609877921,32.3502,-85.1999,18.0,1.0,34.0
Sibolga,ID,1609877921,1.7427,98.7792,24.75,86.0,81.0
Ushuaia,AR,1609877831,-54.8,-68.3,15.0,75.0,44.0
Honolulu,US,1609877679,21.3069,-157.8583,24.0,75.0,88.0
Gaoua,BF,1609877922,10.2992,-3.2508,27.170000000000016,0.0,16.0
Cidreira,BR,1609877922,-30.1811,-50.2056,22.230000000000018,100.0,90.0
Sinnamary,GF,1609877923,5.3833,-52.95,27.390000000000043,98.0,78.0
Carnarvon,AU,1609877923,-24.8667,113.6333,25.0,81.0,69.0
Broome,US,1609877924,42.2506,-75.833,1.670000000000016,90.0,92.0
Brewster,US,1609877924,41.3973,-73.6171,3.0,90.0,69.0
Busselton,AU,1609877775,-33.65,115.3333,15.560000000000002,14.0,76.0
Neiafu,TO,1609877925,-18.65,-173.9833,26.0,75.0,94.0
Chokurdakh,RU,1609877925,70.6333,147.9167,-25.089999999999975,100.0,90.0
Bhag,PK,1609877925,29.0415,67.8239,15.520000000000039,0.0,31.0
New Norfolk,AU,1609877925,-42.7826,147.0587,15.0,93.0,71.0
Alot,IN,1609877796,23.7667,75.55,18.82000000000005,15.0,66.0
Atuona,PF,1609877926,-9.8,-139.0333,25.230000000000018,24.0,72.0
Te Anau,NZ,1609877705,-45.4167,167.7167,12.150000000000034,100.0,91.0
Esperance,AU,1609877927,-33.8667,121.9,13.0,40.0,71.0
Antofagasta,CL,1609877631,-23.65,-70.4,23.33000000000004,20.0,68.0
Vila,PT,1609877927,42.0304,-8.1588,0.5600000000000023,1.0,87.0
Puerto Ayora,EC,1609877927,-0.7393,-90.3518,27.0,0.0,61.0
Chicama,PE,1609877928,-7.8447,-79.1469,22.0,75.0,78.0
Mataura,NZ,1609877928,-46.1927,168.8643,10.0,29.0,94.0
Lorengau,PG,1609877928,-2.0226,147.2712,28.340000000000032,100.0,75.0
Shimoda,JP,1609877928,34.6667,138.95,3.890000000000043,100.0,85.0
Mar del Plata,AR,1609877888,-38.0023,-57.5575,21.110000000000014,90.0,94.0
Hasaki,JP,1609877928,35.7333,140.8333,4.0,75.0,93.0
Sobolevo,RU,1609877929,54.4299,31.8996,-0.92999999999995,100.0,95.0
Saint-Joseph,RE,1609877929,-21.3667,55.6167,25.0,0.0,73.0
Karak,JO,1609877929,31.1667,35.75,12.0,47.0,76.0
Evensk,RU,1609877930,61.95,159.2333,-25.069999999999965,15.0,78.0
Gushikawa,JP,1609877661,26.3544,127.8686,16.0,90.0,87.0
Narsaq,GL,1609877931,60.9167,-46.05,-4.0,20.0,49.0
Boali,CF,1609877931,4.8005,18.1275,24.0,40.0,83.0
Bull Savanna,JM,1609877931,17.8868,-77.5902,25.420000000000016,0.0,64.0
Bredasdorp,ZA,1609877932,-34.5322,20.0403,16.0,1.0,82.0
Mataram,ID,1609877932,-8.5833,116.1167,25.0,75.0,94.0
Hofn,IS,1609877932,64.2539,-15.2082,3.0100000000000477,100.0,82.0
Ken Caryl,US,1609877932,39.5773,-105.1169,11.670000000000016,4.0,28.0
Liverpool,GB,1609877792,53.4106,-2.9779,3.0,40.0,93.0
Hithadhoo,MV,1609877933,-0.6,73.0833,27.930000000000007,75.0,77.0
Tuktoyaktuk,CA,1609877934,69.4541,-133.0374,-26.99999999999997,75.0,75.0
Castro,BR,1609877934,-24.7911,-50.0119,20.03000000000003,100.0,94.0
Necochea,AR,1609877934,-38.5473,-58.7368,17.220000000000027,100.0,94.0
Clonakilty,IE,1609877935,51.6231,-8.8706,2.7800000000000296,75.0,74.0
Indian Head,US,1609877879,38.6001,-77.1622,5.560000000000002,90.0,80.0
Srednekolymsk,RU,1609877935,67.45,153.6833,-31.68999999999997,89.0,85.0
Batemans Bay,AU,1609877936,-35.7167,150.1833,17.78000000000003,25.0,98.0
Markova,UA,1609877936,48.6758,24.4138,3.090000000000032,100.0,89.0
Tocopilla,CL,1609877936,-22.092,-70.1979,22.24000000000001,18.0,55.0
Rocha,UY,1609877936,-34.4833,-54.3333,25.29000000000002,96.0,67.0
Touros,BR,1609877937,-5.1989,-35.4608,28.0,20.0,65.0
Norman Wells,CA,1609877937,65.282,-126.8329,-28.99999999999997,40.0,75.0
Guadalupe y Calvo,MX,1609877937,26.1,-106.9667,15.879999999999995,100.0,27.0
Borisoglebskiy,RU,1609877937,57.2586,39.1508,-2.0,90.0,92.0
Isangel,VU,1609877938,-19.55,169.2667,27.140000000000043,68.0,81.0
Port Macquarie,AU,1609877938,-31.4333,152.9167,21.670000000000016,0.0,99.0
Grindavik,IS,1609877938,63.8424,-22.4338,2.0,90.0,74.0
Beringovskiy,RU,1609877938,63.05,179.3167,-21.039999999999964,100.0,85.0
Hamilton,US,1609877938,39.1834,-84.5333,1.1100000000000136,90.0,80.0
Henties Bay,NA,1609877939,-22.116,14.2845,20.560000000000002,100.0,89.0
Lata,PT,1609877939,40.1629,-8.3327,6.670000000000016,0.0,80.0
Tiksi,RU,1609877939,71.6872,128.8694,-30.349999999999966,100.0,85.0
Cherskiy,RU,1609877940,68.75,161.3,-29.44999999999999,100.0,87.0
Dunedin,NZ,1609877867,-45.8742,170.5036,13.980000000000018,0.0,82.0
Saint-Pierre,RE,1609877940,-21.3393,55.4781,25.0,0.0,73.0
Cap Malheureux,MU,1609877941,-19.9842,57.6142,23.33000000000004,23.0,86.0
Bethel,US,1609877934,41.3712,-73.414,3.0,90.0,69.0
Irituia,BR,1609877941,-1.7711,-47.4381,29.660000000000025,34.0,67.0
Kahului,US,1609877942,20.8947,-156.47,26.0,20.0,61.0
Tilichiki,RU,1609877942,60.4667,166.1,-28.879999999999967,10.0,88.0
Ayan,RU,1609877943,56.45,138.1667,-29.789999999999964,34.0,75.0
Nālūt,LY,1609877943,30.3333,10.85,12.680000000000007,88.0,41.0
Yeniseysk,RU,1609877943,58.4497,92.1703,-27.22999999999999,100.0,88.0
Matagami,CA,1609877852,49.7502,-77.6328,-1.0,90.0,86.0
Nautla,MX,1609877944,20.2167,-96.7833,21.910000000000025,81.0,84.0
Sitka,US,1609877944,57.0531,-135.33,7.0,90.0,56.0
Haines Junction,CA,1609877945,60.7522,-137.5108,-14.069999999999993,100.0,90.0
Lakshmeshwar,IN,1609877945,15.1333,75.4667,20.700000000000045,68.0,82.0
Upernavik,GL,1609877945,72.7868,-56.1549,-13.109999999999957,100.0,93.0
Okhotsk,RU,1609877945,59.3833,143.3,-24.829999999999984,95.0,82.0
Aklavik,CA,1609877945,68.2191,-135.0107,-27.99999999999997,100.0,75.0
Livramento,BR,1609877946,-3.0254,-60.1803,24.0,75.0,88.0
Kilindoni,TZ,1609877947,-7.9139,39.6668,27.560000000000002,25.0,78.0
Portland,US,1609877614,45.5234,-122.6762,9.439999999999998,90.0,70.0
Havøysund,NO,1609877949,70.9963,24.6622,3.0,75.0,86.0
Saint Anthony,US,1609877949,45.0205,-93.218,1.670000000000016,1.0,97.0
Imbituba,BR,1609877949,-28.24,-48.6703,28.0,75.0,69.0
Naryan-Mar,RU,1609877950,67.6713,53.087,-19.809999999999974,78.0,92.0
Porto Walter,BR,1609877950,-8.2686,-72.7439,27.120000000000005,96.0,85.0
Saint-Philippe,RE,1609877950,-21.3585,55.7679,25.0,0.0,73.0
Olafsvik,IS,1609877951,64.8945,-23.7142,2.3500000000000227,99.0,79.0
Winnemucca,US,1609877951,40.973,-117.7357,7.0,1.0,48.0
Katherine,AU,1609877952,-14.4667,132.2667,28.0,75.0,78.0
Provideniya,RU,1609877952,64.3833,-173.3,-18.74999999999997,0.0,84.0
Souillac,MU,1609877952,-20.5167,57.5167,25.0,40.0,83.0
Port Alfred,ZA,1609877952,-33.5906,26.891,21.670000000000016,97.0,88.0
Mahébourg,MU,1609877953,-20.4081,57.7,25.0,40.0,83.0
Puerto Palomas,MX,1609877953,31.7667,-107.6167,13.0,1.0,22.0
George Town,MY,1609877799,5.4112,100.3354,25.0,40.0,94.0
Hirara,JP,1609877954,24.8,125.2833,19.150000000000034,99.0,80.0
Turaif,SA,1609877954,31.6725,38.6637,10.0,0.0,76.0
Grafton,US,1609877954,42.207,-71.6856,1.1100000000000136,90.0,69.0
Inhambane,MZ,1609877955,-23.865,35.3833,28.0,20.0,78.0
Faranah,GN,1609877955,10.0404,-10.7434,25.930000000000007,0.0,23.0
Kyzyl-Suu,KG,1609877955,42.3414,78.0056,-5.819999999999993,29.0,70.0
Port-Gentil,GA,1609877955,-0.7193,8.7815,27.0,40.0,88.0
Tarko-Sale,RU,1609877956,64.9225,77.785,-29.039999999999964,0.0,83.0
Ostrovnoy,RU,1609877956,68.0531,39.5131,-9.529999999999973,58.0,95.0
Songjianghe,CN,1609877956,42.1859,127.479,-20.409999999999968,76.0,85.0
Coyhaique,CL,1609877956,-45.5752,-72.0662,25.0,0.0,16.0
Novaya Bryan’,RU,1609877956,51.7159,108.2691,-27.99999999999997,75.0,68.0
Río Gallegos,AR,1609877677,-51.6226,-69.2181,21.0,0.0,36.0
Acapulco de Juárez,MX,1609877896,16.8634,-99.8901,28.0,20.0,74.0
Heraclea,TR,1609877957,37.5133,34.0467,7.03000000000003,42.0,62.0
Port Augusta,AU,1609877957,-32.5,137.7667,17.0,90.0,63.0
Qui Nhon,VN,1609877957,13.7667,109.2333,23.28000000000003,100.0,87.0
Alta Floresta,BR,1609877958,-9.8756,-56.0861,27.150000000000034,100.0,92.0
Pijijiapan,MX,1609877958,15.7011,-93.23,32.110000000000014,13.0,47.0
Nueve de Julio,AR,1609877958,-35.4444,-60.8831,26.670000000000016,8.0,72.0
Vila Velha,BR,1609877958,-20.3297,-40.2925,29.0,20.0,66.0
Milos,GR,1609877959,36.75,24.4333,12.0,54.0,76.0
Da Lat,VN,1609877959,11.9465,108.4419,14.370000000000005,100.0,100.0
Sørland,NO,1609877960,67.667,12.6934,6.0,75.0,87.0
Lagoa,PT,1609877960,39.05,-27.9833,15.04000000000002,100.0,79.0
Goma,CD,1609877960,-1.6792,29.2228,17.82000000000005,100.0,79.0
Constitución,CL,1609877961,-35.3333,-72.4167,18.610000000000014,5.0,54.0
Jesús María,AR,1609877961,-30.9815,-64.0942,25.0,75.0,64.0
Oussouye,SN,1609877961,12.485,-16.5469,27.0,0.0,65.0
Laas,IT,1609877962,46.6166,10.7002,2.2200000000000273,75.0,79.0
Biak,ID,1609877962,-0.9131,122.8766,24.200000000000045,100.0,84.0
Kavaratti,IN,1609877962,10.5669,72.642,27.939999999999998,99.0,76.0
Fandriana,MG,1609877963,-20.2333,47.3833,16.879999999999995,52.0,93.0
Halifax,CA,1609877705,44.6453,-63.5724,2.2200000000000273,100.0,80.0
Alofi,NU,1609877964,-19.0595,-169.9187,24.0,100.0,100.0
Anchorage,US,1609877964,61.2181,-149.9003,-6.109999999999957,90.0,79.0
Cacequi,BR,1609877964,-29.8836,-54.825,29.430000000000007,35.0,55.0
Harper,LR,1609877964,4.375,-7.7169,26.24000000000001,74.0,84.0
Roald,NO,1609877965,62.5833,6.1333,1.0,20.0,64.0
Barbosa Ferraz,BR,1609877965,-24.03,-52.0117,26.0,40.0,74.0
Yellowknife,CA,1609877879,62.456,-114.3525,-23.889999999999986,90.0,75.0
Guadalajara,MX,1609877829,20.6667,-103.3333,24.439999999999998,5.0,27.0
Ponta Delgada,PT,1609877773,37.7333,-25.6667,13.0,75.0,93.0
Faanui,PF,1609877966,-16.4833,-151.75,27.360000000000014,0.0,75.0
Sumenep,ID,1609877966,-7.0167,113.8667,25.25,100.0,87.0
Mykolayivka,UA,1609877966,47.5414,30.7561,4.760000000000048,88.0,85.0
Port Elizabeth,ZA,1609877857,-33.918,25.5701,22.0,82.0,78.0
Pinerolo,IT,1609877966,44.8833,7.35,3.330000000000041,100.0,93.0
Zhangaözen,KZ,1609877967,43.3,52.8,-4.2999999999999545,0.0,90.0
Mandera,KE,1609877967,3.9366,41.867,28.870000000000005,99.0,27.0
Vardø,NO,1609877967,70.3705,31.1107,-5.0,75.0,92.0
Codrington,AU,1609877967,-38.2667,141.9667,13.680000000000007,100.0,83.0
Notre-Dame-du-Lac,CA,1609877967,47.6136,-68.7964,-2.7799999999999727,90.0,85.0
São Filipe,CV,1609877967,14.8961,-24.4956,24.220000000000027,100.0,75.0
Jamestown,US,1609877968,42.097,-79.2353,1.670000000000016,90.0,95.0
Hong Kong,HK,1609877943,22.2855,114.1577,17.220000000000027,91.0,80.0
Mărgineni,RO,1609877968,46.9,26.6333,4.439999999999998,100.0,55.0
Salalah,OM,1609877968,17.0151,54.0924,23.0,0.0,33.0
Nizwá,OM,1609877968,22.9333,57.5333,11.670000000000016,0.0,54.0
Kutum,SD,1609877968,14.2,24.6667,17.680000000000007,0.0,26.0
Tura,IN,1609877969,25.5198,90.2201,16.640000000000043,100.0,57.0
Ahipara,NZ,1609877969,-35.1667,173.1667,20.58000000000004,100.0,69.0
Coari,BR,1609877969,-4.085,-63.1414,28.77000000000004,84.0,81.0
Karratha,AU,1609877970,-20.7377,116.8463,29.30000000000001,24.0,39.0
Tuatapere,NZ,1609877718,-46.1333,167.6833,10.0,100.0,94.0
Arrondissement de Saint-Denis,FR,1609877970,48.9167,2.3333,3.0,90.0,86.0
Kumul,CN,1609877953,42.8,93.45,-12.92999999999995,5.0,69.0
Noumea,NC,1609877971,-22.2763,166.4572,27.78000000000003,75.0,94.0
Venezuela,VE,1609877858,8.0,-66.0,32.81,41.0,34.0
Hambantota,LK,1609877971,6.1241,81.1185,24.850000000000023,61.0,88.0
Santa Cruz de la Sierra,BO,1609877706,-17.8,-63.1667,21.0,90.0,94.0
Louis Trichardt,ZA,1609877972,-23.0439,29.9032,23.840000000000032,56.0,47.0
Bengkulu,ID,1609877972,-3.8004,102.2655,24.53000000000003,92.0,89.0
Noyabrsk,RU,1609877973,63.1994,75.4507,-30.289999999999964,0.0,83.0
Palm Coast,US,1609877832,29.585,-81.2078,20.560000000000002,75.0,48.0
Quatre Cocos,MU,1609877974,-20.2078,57.7625,25.0,40.0,83.0
Ipixuna,BR,1609877974,-1.7625,-48.8043,28.0,75.0,88.0
Léo,BF,1609877974,11.1,-2.1,27.970000000000027,0.0,15.0
Fare,PF,1609877975,-16.7,-151.0167,27.29000000000002,67.0,72.0
Cocula,MX,1609877975,20.3652,-103.8222,24.439999999999998,5.0,27.0
Ternate,ID,1609877975,0.8,127.4,26.840000000000032,100.0,79.0
Praia da Vitória,PT,1609877975,38.7333,-27.0667,14.439999999999998,75.0,87.0
Chupa,RU,1609877976,66.27,33.0549,-12.879999999999995,3.0,95.0
Mbandaka,CD,1609877976,0.0487,18.2603,24.160000000000025,74.0,85.0
Saint Paul Harbor,US,1609877976,57.79,-152.4072,4.0,90.0,80.0
Nobres,BR,1609877976,-14.7203,-56.3275,32.360000000000014,99.0,49.0
Saskylakh,RU,1609877976,71.9167,114.0833,-19.889999999999986,95.0,89.0
Tupik,RU,1609877976,54.4253,119.9327,-34.19999999999999,66.0,81.0
Pevek,RU,1609877977,69.7008,170.3133,-25.569999999999965,100.0,90.0
Clyde River,CA,1609877977,70.4692,-68.5914,-32.99999999999997,20.0,74.0
Negombo,LK,1609877977,7.2083,79.8358,24.0,20.0,94.0
Aripuanã,BR,1609877977,-9.1667,-60.6333,32.06,11.0,54.0
Port Lincoln,AU,1609877978,-34.7333,135.8667,15.390000000000043,100.0,73.0
Newcastle,AU,1609877978,-32.9272,151.7765,22.220000000000027,75.0,88.0
Kalemie,CD,1609877978,-5.9475,29.1947,22.55000000000001,92.0,82.0
Berlevåg,NO,1609877978,70.8578,29.0864,1.0,75.0,86.0
Olavarría,AR,1609877978,-36.8927,-60.3225,17.450000000000045,100.0,91.0
Ursulo Galván,MX,1609877978,22.7333,-98.3,28.33000000000004,38.0,47.0
Troitsko-Pechorsk,RU,1609877979,62.7084,56.1964,-17.95999999999998,96.0,94.0
Eilat,IL,1609877979,29.5581,34.9482,19.0,0.0,59.0
Saldanha,ZA,1609877979,-33.0117,17.9442,19.0,0.0,77.0
Khatanga,RU,1609877979,71.9667,102.5,-18.069999999999965,100.0,93.0
Kavieng,PG,1609877980,-2.5744,150.7967,27.140000000000043,100.0,78.0
Palana,RU,1609877980,59.1167,159.9667,-22.789999999999964,69.0,91.0
Sur,OM,1609877981,22.5667,59.5289,19.30000000000001,0.0,43.0
Atar,MR,1609877981,20.5169,-13.0499,23.230000000000018,100.0,33.0
Gogrial,SS,1609877982,8.5332,28.1004,25.77000000000004,0.0,24.0
Payyanur,IN,1609877982,12.1,75.2,25.0,20.0,88.0
Nome,US,1609877984,64.5011,-165.4064,-16.0,90.0,77.0
Marystown,CA,1609877985,47.1666,-55.1483,2.920000000000016,100.0,85.0
Kānkon,IN,1609877986,15.0167,74.0167,26.0,75.0,88.0
Torbay,CA,1609877986,47.6666,-52.7314,2.2200000000000273,90.0,100.0
Iqaluit,CA,1609877986,63.7506,-68.5145,-17.779999999999973,90.0,84.0
St-Jean-Port-Joli,CA,1609877986,47.2171,-70.2658,-3.0,100.0,85.0
Lermontovka,RU,1609877986,47.1453,134.3383,-25.029999999999973,46.0,88.0
Niterói,BR,1609877987,-22.8833,-43.1036,28.890000000000043,20.0,78.0
Cairns,AU,1609877987,-16.9167,145.7667,26.0,40.0,94.0
Ribeira Grande,PT,1609877987,38.5167,-28.7,15.0,75.0,87.0
Matara,LK,1609877987,5.9485,80.5353,24.29000000000002,49.0,90.0
Tual,ID,1609877987,-5.6667,132.75,28.79000000000002,100.0,74.0
Līsakovsk,KZ,1609877987,52.5369,62.4936,-19.089999999999975,100.0,89.0
Ushtobe,KZ,1609877988,45.2514,77.9838,-19.039999999999964,100.0,88.0
Mogadishu,SO,1609877988,2.0371,45.3438,24.970000000000027,41.0,73.0
Nemuro,JP,1609877988,43.3236,145.575,-6.0,70.0,83.0
Alice Springs,AU,1609877988,-23.7,133.8833,21.0,24.0,40.0
Tateyama,JP,1609877989,34.9833,139.8667,6.670000000000016,100.0,63.0
Cândido Mendes,BR,1609877989,-1.4467,-45.7167,28.960000000000036,42.0,64.0
Avera,US,1609877989,33.194,-82.5271,17.0,1.0,36.0
Zemetchino,RU,1609877989,53.4973,42.6163,-9.099999999999966,45.0,96.0
Patacamaya,BO,1609877990,-17.2333,-67.9167,15.29000000000002,100.0,36.0
Canhaway,PH,1609877990,9.7501,124.4722,24.80000000000001,100.0,88.0
Zachary,US,1609877990,30.6485,-91.1565,21.110000000000014,1.0,32.0
Atbasar,KZ,1609877991,51.8,68.3333,-23.299999999999983,0.0,87.0
Barrow,US,1609877705,71.2906,-156.7887,-26.99999999999997,40.0,68.0
Adrar,MR,1609877992,20.5022,-10.0711,21.220000000000027,100.0,34.0
Caravelas,BR,1609877992,-17.7125,-39.2481,27.04000000000002,8.0,70.0
Lewistown,US,1609877992,40.5992,-77.5714,2.2200000000000273,90.0,100.0
Afşin,TR,1609877993,38.2477,36.914,3.090000000000032,57.0,77.0
Río de Jesús,PA,1609877993,7.9844,-81.1631,30.210000000000036,91.0,52.0
Gorontalo,ID,1609877848,0.5412,123.0595,23.99000000000001,100.0,89.0
Ust-Maya,RU,1609877994,60.4167,134.5333,-37.42999999999998,100.0,82.0
Yefremov,RU,1609877994,53.1481,38.0992,-3.5399999999999636,100.0,98.0
Muros,ES,1609877995,42.7762,-9.0603,3.330000000000041,1.0,93.0
Chui,UY,1609877995,-33.6971,-53.4616,24.650000000000034,58.0,75.0
Álamos,MX,1609877995,27.0167,-108.9333,27.890000000000043,100.0,14.0
Vila do Maio,CV,1609877995,15.1333,-23.2167,25.0,0.0,50.0
Changzhou,CN,1609877996,31.7833,119.9667,2.7800000000000296,89.0,73.0
Padang,ID,1609877996,-0.9492,100.3543,25.0,40.0,94.0
Kushiro,JP,1609877996,42.975,144.3747,-9.0,3.0,88.0
Porto-Novo,BJ,1609877996,6.4965,2.6036,29.0,20.0,83.0
Byron Bay,AU,1609877752,-28.65,153.6167,22.0,41.0,94.0
Totness,SR,1609877997,5.8833,-56.3167,26.680000000000007,100.0,84.0
Freeport,US,1609877993,40.6576,-73.5832,5.560000000000002,90.0,56.0
Port Keats,AU,1609877997,-14.25,129.55,27.720000000000027,87.0,81.0
Qeshm,IR,1609877997,26.9581,56.2719,13.0,0.0,36.0
Eenhana,NA,1609877997,-17.4667,16.3333,28.0,16.0,32.0
Sendafa,ET,1609877998,9.15,39.0333,9.990000000000009,0.0,59.0
Fortuna,US,1609877998,40.5982,-124.1573,13.890000000000043,1.0,76.0
Thompson,CA,1609877998,55.7435,-97.8558,-15.0,75.0,84.0
Bilibino,RU,1609877998,68.0546,166.4372,-34.589999999999975,100.0,81.0
Cabedelo,BR,1609877999,-6.9811,-34.8339,29.0,20.0,62.0
Fianarantsoa,MG,1609877999,-21.4333,47.0833,18.129999999999995,100.0,93.0
Belaya Gora,RU,1609877999,68.5333,146.4167,-32.37999999999997,22.0,84.0
Anadyr,RU,1609877999,64.75,177.4833,-25.99999999999997,0.0,75.0
Merauke,ID,1609878000,-8.4667,140.3333,25.370000000000005,100.0,89.0
San Pedro de Urabá,CO,1609878000,8.2752,-76.3764,28.510000000000048,25.0,67.0
Antalaha,MG,1609878000,-14.9003,50.2788,23.80000000000001,3.0,87.0
Sibu,MY,1609878001,2.3,111.8167,24.0,40.0,100.0
Bafilo,TG,1609878001,9.35,1.2667,26.08000000000004,0.0,17.0
Boa Vista,BR,1609877706,2.8197,-60.6733,33.0,40.0,43.0
La Ronge,CA,1609878003,55.1001,-105.2842,-8.0,90.0,85.0
Longyearbyen,SJ,1609877718,78.2186,15.6401,-6.0,75.0,67.0
Pemangkat,ID,1609878004,1.1667,108.9667,25.210000000000036,98.0,90.0
Krasnosel'kup,RU,1609878004,65.7,82.4667,-27.68999999999997,100.0,88.0
Geraldton,AU,1609878004,-28.7667,114.6,26.0,6.0,19.0
Utrera,ES,1609878005,37.1852,-5.7809,8.330000000000041,20.0,75.0
Moussoro,TD,1609878005,13.6408,16.4901,26.610000000000014,35.0,16.0
Ilulissat,GL,1609878005,69.2167,-51.1,-12.0,75.0,72.0
Semporna,MY,1609878006,4.4818,118.6112,24.0,20.0,94.0
Kruisfontein,ZA,1609878006,-34.0033,24.7314,21.110000000000014,74.0,84.0
Korla,CN,1609878006,41.7597,86.1469,-10.659999999999968,27.0,84.0
Bonavista,CA,1609878007,48.6499,-53.1147,1.670000000000016,100.0,92.0
Carutapera,BR,1609878007,-1.195,-46.02,28.840000000000032,42.0,66.0
Natal,BR,1609878007,-5.795,-35.2094,30.0,20.0,58.0
Lingsugūr,IN,1609878007,16.1667,76.5167,20.82000000000005,85.0,83.0
Camacha,PT,1609878008,33.0833,-16.3333,17.0,40.0,88.0
Brae,GB,1609878008,60.3964,-1.353,5.0,100.0,86.0
Revelstoke,CA,1609878008,50.9832,-118.2023,2.0,75.0,93.0
Artvin Province,TR,1609877969,41.1667,41.8333,14.0,0.0,22.0
Kosa,RU,1609878008,59.9445,54.9977,-17.609999999999985,77.0,94.0
Rome,US,1609878008,43.2128,-75.4557,2.0,90.0,80.0
Ranau,MY,1609878009,5.9538,116.6641,23.0,20.0,100.0
Elumalai,IN,1609878009,9.8667,77.7,25.0,20.0,83.0
Mount Isa,AU,1609878009,-20.7333,139.5,27.0,75.0,30.0
Gemena,CD,1609878009,3.25,19.7667,23.470000000000027,100.0,85.0
Preston,GB,1609878010,53.7667,-2.7167,4.0,40.0,80.0
Mugur-Aksy,RU,1609878010,50.35,90.5,-27.589999999999975,0.0,60.0
Inongo,CD,1609878010,-1.95,18.2667,24.58000000000004,11.0,80.0
Vila Franca do Campo,PT,1609878011,37.7167,-25.4333,13.0,75.0,93.0
Frolovo,RU,1609878011,49.7713,43.6622,-5.0,95.0,74.0
Chapais,CA,1609878012,49.7834,-74.8492,-8.0,90.0,92.0
Vostok,RU,1609878012,46.4856,135.8833,-26.359999999999985,97.0,89.0
Lavrentiya,RU,1609878013,65.5833,-171.0,-23.839999999999975,0.0,84.0
Kérouané,GN,1609878013,9.2667,-9.0167,25.560000000000002,1.0,23.0
Petropavlovsk-Kamchatskiy,RU,1609878014,53.0452,158.6483,-7.0,90.0,85.0
Hokitika,NZ,1609878015,-42.7167,170.9667,17.260000000000048,100.0,95.0
Anloga,GH,1609878015,5.7947,0.8973,29.0,20.0,83.0
Port-Cartier,CA,1609878019,50.0334,-66.8654,-3.329999999999984,99.0,85.0
Oranjemund,NA,1609878023,-28.55,16.4333,16.660000000000025,15.0,89.0
Acarí,PE,1609878023,-15.4311,-74.6158,25.870000000000005,96.0,56.0
Nakamura,JP,1609878023,32.9833,132.9333,2.6299999999999955,98.0,79.0
Abū Zabad,SD,1609878024,12.35,29.25,22.439999999999998,0.0,22.0
Kumluca,TR,1609878024,36.3703,30.2869,15.53000000000003,68.0,73.0
Leningradskiy,RU,1609878024,69.3833,178.4167,-23.119999999999976,100.0,88.0
Iberia,US,1609878025,29.9502,-91.7507,20.0,1.0,37.0
Benguela,AO,1609878025,-12.5763,13.4055,24.689999999999998,0.0,74.0
Norrtälje,SE,1609878026,59.758,18.705,2.2200000000000273,47.0,82.0
Stonehaven,GB,1609878026,56.9637,-2.2118,2.0,90.0,100.0
Riverton,US,1609878027,40.5219,-111.9391,5.560000000000002,40.0,64.0
Klaksvík,FO,1609878027,62.2266,-6.589,7.0,100.0,93.0
Lodeynoye Pole,RU,1609878027,60.726,33.5531,-9.019999999999982,21.0,97.0
Khāsh,IR,1609878027,28.2211,61.2158,-0.009999999999990905,0.0,68.0
Bissau,GW,1609878028,11.8636,-15.5977,27.0,0.0,47.0
La Orilla,MX,1609878028,17.9833,-102.2333,27.77000000000004,0.0,59.0
Dumbéa,NC,1609878028,-22.15,166.45,27.78000000000003,75.0,94.0
Saint George,US,1609877835,37.1041,-113.5841,12.78000000000003,1.0,32.0
Nishihara,JP,1609878029,26.1842,127.7558,17.0,75.0,77.0
Burns Lake,CA,1609878029,54.2331,-125.7533,-4.0,100.0,92.0
San Luis,AR,1609878029,-33.295,-66.3356,22.5,3.0,48.0
Cayenne,GF,1609877819,4.9333,-52.3333,28.0,75.0,88.0
Igarka,RU,1609878030,67.4667,86.5833,-26.25999999999999,100.0,88.0
Paita,PE,1609878030,-5.0892,-81.1144,28.0,0.0,58.0
Urucará,BR,1609878030,-2.5364,-57.76,32.460000000000036,51.0,52.0
Port Hedland,AU,1609878031,-20.3167,118.5667,25.0,56.0,57.0
Puerto Rico,AR,1609878031,-26.796,-55.024,23.110000000000014,100.0,87.0
Cabo San Lucas,MX,1609878021,22.8909,-109.9124,24.439999999999998,75.0,37.0
Corcova,RO,1609878031,44.7,23.05,4.890000000000043,0.0,75.0
Laguna,US,1609878032,38.421,-121.4238,10.560000000000002,75.0,93.0
Mildura,AU,1609878032,-34.2,142.15,14.0,0.0,76.0
Dul'durga,RU,1609878032,50.6761,113.5931,-29.569999999999965,7.0,73.0
Saint-Augustin,CA,1609878033,51.226,-58.6502,-3.839999999999975,99.0,93.0
Sisimiut,GL,1609878034,66.9395,-53.6735,-10.779999999999973,100.0,94.0
Pampa,US,1609878034,35.5362,-100.9599,16.0,1.0,26.0
Miguel Hidalgo,MX,1609878034,19.4225,-99.2028,22.220000000000027,5.0,25.0
Ust-Tsilma,RU,1609878035,65.441,52.1498,-18.789999999999964,21.0,92.0
Praia,CV,1609878035,14.9215,-23.5087,25.0,0.0,50.0
Santa Clara,CU,1609878014,22.4,-79.9667,25.0,75.0,65.0
Clyde,US,1609878035,41.3042,-82.9752,2.2200000000000273,100.0,88.0
Ancud,CL,1609878036,-41.8697,-73.8203,20.0,0.0,56.0
Elko,US,1609877845,41.0002,-115.5012,3.0,40.0,69.0
Phan Thiet,VN,1609878036,10.9333,108.1,22.730000000000018,87.0,84.0
Salinas,US,1609877746,36.6777,-121.6555,14.0,1.0,67.0
Beloha,MG,1609878037,-25.1667,45.05,22.720000000000027,38.0,83.0
Griffith,US,1609878037,41.5284,-87.4237,2.2200000000000273,90.0,80.0
Pilar,BR,1609878037,-9.5972,-35.9567,28.0,0.0,65.0
Safi,MA,1609878037,32.2994,-9.2372,17.02000000000004,33.0,83.0
Baykit,RU,1609878038,61.67,96.37,-24.619999999999976,93.0,85.0
Basco,PH,1609878038,20.4487,121.9702,23.32000000000005,100.0,82.0
Nangavalli,IN,1609878039,11.75,77.8833,21.150000000000034,43.0,93.0
Hervey Bay,AU,1609878039,-25.2986,152.8535,25.0,53.0,91.0
Kuandian,CN,1609878039,40.7286,124.7847,-15.96999999999997,4.0,71.0
Verkhoyansk,RU,1609878039,67.5447,133.385,-37.96999999999997,1.0,77.0
Mopipi,BW,1609878043,-21.1833,24.8833,29.83000000000004,88.0,39.0
Nioro,GM,1609878047,13.35,-15.75,30.410000000000025,100.0,17.0
Gannan,CN,1609878048,47.9147,123.5031,-21.17999999999998,100.0,91.0
Katobu,ID,1609878048,-4.9408,122.5276,24.410000000000025,100.0,90.0
Ratangarh,IN,1609878048,28.0833,74.6,16.650000000000034,0.0,64.0
Nosy Varika,MG,1609878048,-20.5833,48.5333,24.140000000000043,8.0,83.0
Nirmal,IN,1609878048,19.1,78.35,18.99000000000001,3.0,64.0
Biskamzha,RU,1609878049,53.4497,89.5272,-24.93999999999997,0.0,80.0
Changji,CN,1609878049,44.0167,87.3167,-24.99999999999997,75.0,83.0
Kaitangata,NZ,1609878049,-46.2817,169.8464,14.439999999999998,8.0,86.0
Marabba,SD,1609878049,12.35,32.1833,26.100000000000023,0.0,24.0
Ashford,GB,1609878050,51.1459,0.8728,4.439999999999998,99.0,89.0
Salé,MA,1609878050,34.0389,-6.8166,11.670000000000016,75.0,100.0
Tucuruí,BR,1609878051,-3.7661,-49.6725,29.02000000000004,100.0,74.0
Waverly,US,1609878051,42.7392,-84.6208,1.0,90.0,86.0
Morón,AR,1609878051,-34.6534,-58.6198,27.220000000000027,75.0,88.0
San Pedro de Ycuamandiyú,PY,1609878052,-24.0917,-57.0764,26.110000000000014,34.0,90.0
Aloleng,PH,1609878052,16.1307,119.7824,26.010000000000048,3.0,82.0
Lethem,GY,1609878052,3.3803,-59.7968,32.31,68.0,47.0
Lompoc,US,1609877849,34.6391,-120.4579,15.0,1.0,82.0
Makakilo City,US,1609878053,21.3469,-158.0858,24.0,75.0,78.0
Kokopo,PG,1609878054,-4.352,152.2633,24.860000000000014,90.0,87.0
Ciudad del Carmen,MX,1609878054,18.6333,-91.8333,26.0,75.0,74.0
Taos,US,1609877758,36.4072,-105.5731,6.110000000000014,1.0,41.0
Celina,US,1609878055,40.5489,-84.5702,0.5600000000000023,90.0,88.0
Mīrābād,AF,1609878055,30.4362,61.8383,2.1200000000000045,0.0,74.0
Bambanglipuro,ID,1609878055,-7.95,110.2833,24.720000000000027,96.0,84.0
Ust-Kuyga,RU,1609878056,70.0167,135.6,-35.819999999999965,94.0,81.0
Barranco,PA,1609878056,9.5167,-82.7,28.0,0.0,69.0
Umluj,SA,1609878057,25.0213,37.2685,23.82000000000005,0.0,66.0
Nixa,US,1609877875,37.0434,-93.2944,12.220000000000027,35.0,41.0
Erzin,TR,1609878057,36.9559,36.2,14.439999999999998,56.0,55.0
Lagunas,PE,1609878057,-5.2269,-75.6753,22.710000000000036,100.0,97.0
Prome,MM,1609878058,18.8167,95.2167,19.850000000000023,0.0,68.0
Washington,US,1609878058,47.5001,-120.5015,1.670000000000016,75.0,86.0
Kingman,US,1609878058,35.1894,-114.053,19.439999999999998,1.0,24.0
Sioux Lookout,CA,1609878059,50.1001,-91.917,-5.0,90.0,85.0
Caruray,PH,1609878059,10.3094,119.0128,25.730000000000018,100.0,82.0
Upata,VE,1609878059,8.0086,-62.3989,30.560000000000002,100.0,59.0
Elban,RU,1609878060,50.1018,136.5094,-26.70999999999998,74.0,85.0
Arman',RU,1609878060,59.7,150.1667,-24.46999999999997,85.0,79.0
Chachapoyas,PE,1609878060,-6.2317,-77.869,19.470000000000027,100.0,55.0
Erdenet,MN,1609878061,49.0333,104.0833,-32.65999999999997,63.0,80.0
Fairbanks,US,1609877794,64.8378,-147.7164,-19.99999999999997,20.0,83.0
Esim,GH,1609878061,4.8699,-2.2405,26.54000000000002,100.0,84.0
Port Blair,IN,1609878062,11.6667,92.75,26.25,1.0,82.0
Itacaré,BR,1609878013,-14.2775,-38.9967,29.0,40.0,66.0
Fort Nelson,CA,1609878062,58.8053,-122.7002,-22.99999999999997,40.0,76.0
Mathbaria,BD,1609878063,22.2876,89.9593,18.52000000000004,3.0,59.0
Kailua,US,1609878063,21.4022,-157.7394,24.0,90.0,78.0
Safaga,EG,1609878063,26.7292,33.9365,18.0,0.0,63.0
Kaberamaido,UG,1609878064,1.7389,33.1594,25.360000000000014,89.0,41.0
Olinda,BR,1609878064,-8.0089,-34.8553,27.0,20.0,61.0
Abu Kamal,SY,1609878064,34.4506,40.9171,11.090000000000032,32.0,44.0
Umreth,IN,1609878065,22.7,73.1167,13.0,1.0,87.0
Dondo,MZ,1609878065,-19.6094,34.7431,27.0,0.0,83.0
Çine,TR,1609878065,37.6117,28.0614,8.0,0.0,93.0
Paris,FR,1609877526,48.8534,2.3488,3.0,90.0,84.0
Dalvik,IS,1609878065,65.9702,-18.5286,0.0,40.0,91.0
Oistins,BB,1609878066,13.0667,-59.5333,29.0,20.0,62.0
Colombo,LK,1609878066,6.9319,79.8478,24.0,20.0,94.0
Meulaboh,ID,1609878066,4.1363,96.1285,25.340000000000032,73.0,87.0
Ananas,HT,1609878066,19.2466,-71.9557,26.0,20.0,65.0
Calvinia,ZA,1609878066,-31.4707,19.776,20.090000000000032,0.0,59.0
Zabul Province,AF,1609878067,32.25,67.25,-0.9199999999999591,0.0,85.0
Belmonte,BR,1609878067,-15.8631,-38.8828,28.0,75.0,61.0
Igrim,RU,1609878067,63.1906,64.4162,-24.629999999999967,78.0,89.0
Tumen,CN,1609878068,42.9661,129.8425,-17.42999999999998,78.0,77.0
Najrān,SA,1609878068,17.4924,44.1277,17.0,0.0,39.0
Yichang,CN,1609878068,30.7144,111.2847,2.2200000000000273,94.0,75.0
Karīmganj,IN,1609878068,24.8667,92.35,16.090000000000032,91.0,77.0
Kaka,TM,1609878069,37.3482,59.6143,-1.329999999999984,100.0,95.0
Parabel',RU,1609878069,58.6978,81.4825,-30.089999999999975,0.0,83.0
Mareeba,AU,1609878069,-17.0,145.4333,26.0,40.0,94.0
Dali,CN,1609878070,25.7,100.1833,7.560000000000002,65.0,76.0
Taseyevo,RU,1609878070,57.2169,94.8978,-24.549999999999983,100.0,87.0
Siavonga,ZM,1609878070,-16.5382,28.7088,25.82000000000005,66.0,72.0
Zell am See,AT,1609878071,47.3256,12.7944,-6.109999999999957,100.0,96.0
Yumen,CN,1609878071,40.2833,97.2,-15.669999999999959,0.0,71.0
Baghdad,IQ,1609878071,33.3406,44.4009,9.0,0.0,61.0
Tharād,IN,1609878072,24.3961,71.6267,13.75,0.0,46.0
Marabu,MY,1609877792,4.4148,114.0089,24.0,40.0,94.0
Talnakh,RU,1609878073,69.4865,88.3972,-25.99999999999997,90.0,83.0
Taoudenni,ML,1609878073,22.6783,-3.9836,20.680000000000007,98.0,23.0
Sijunjung,ID,1609878073,-0.6876,100.9537,21.930000000000007,44.0,90.0
Voh,NC,1609878074,-20.9667,164.7,26.850000000000023,91.0,84.0
Miandrivazo,MG,1609877787,-19.5167,45.4667,26.220000000000027,96.0,80.0
Polunochnoye,RU,1609878074,60.8697,60.4153,-24.899999999999977,100.0,91.0
Ambatofinandrahana,MG,1609878075,-20.55,46.8,17.52000000000004,69.0,92.0
Senanga,ZM,1609878075,-16.1167,23.2667,21.30000000000001,83.0,81.0
Naze,JP,1609878075,28.3667,129.4833,15.0,90.0,72.0
Nadvoitsy,RU,1609878076,63.8667,34.3167,-12.359999999999957,93.0,96.0
Gornoye Loo,RU,1609878076,43.7129,39.6049,10.0,100.0,42.0
Pahrump,US,1609878077,36.2083,-115.9839,15.0,0.0,28.0
Gorom-Gorom,BF,1609878077,14.4439,-0.2361,26.910000000000025,0.0,16.0
Praia,CV,1609878077,14.9215,-23.5087,25.0,0.0,50.0
Bubaque,GW,1609878077,11.2833,-15.8333,27.100000000000023,41.0,69.0
Sabang,ID,1609878077,5.8933,95.3214,27.960000000000036,91.0,77.0
Staryy Nadym,RU,1609878080,65.6118,72.6842,-26.47999999999999,66.0,88.0
Itaituba,BR,1609878083,-4.2761,-55.9836,26.0,40.0,83.0
Zagora,MA,1609878083,30.3484,-5.8365,13.970000000000027,7.0,51.0
Verkhnyaya Inta,RU,1609878084,65.9811,60.3094,-17.44999999999999,0.0,90.0
Hearst,CA,1609878084,49.6835,-83.6665,-3.0,100.0,92.0
Ubari,LY,1609878084,26.5921,12.7805,16.33000000000004,99.0,51.0
Morgan City,US,1609878085,29.6994,-91.2068,20.0,1.0,45.0
Aborlan,PH,1609878085,9.4352,118.5492,24.810000000000002,100.0,83.0
Takoradze,GH,1609878085,4.8845,-1.7554,26.670000000000016,99.0,84.0
Hope Mills,US,1609878085,34.9704,-78.9453,11.110000000000014,1.0,76.0
Barra de Tecoanapa,MX,1609878085,16.5167,-98.75,28.57000000000005,0.0,66.0
Trairi,BR,1609878086,-3.2778,-39.2689,28.189999999999998,1.0,70.0
Coromandel,BR,1609878086,-18.4733,-47.2003,24.53000000000003,80.0,80.0
Ihosy,MG,1609878086,-22.4,46.1167,20.890000000000043,100.0,90.0
Mayo,US,1609878086,38.8876,-76.5119,5.0,90.0,86.0
Aykhal,RU,1609878086,66.0,111.5,-18.99999999999997,90.0,84.0
Tarauacá,BR,1609878087,-8.1614,-70.7656,27.57000000000005,99.0,91.0
Bilma,NE,1609878087,18.6853,12.9164,23.79000000000002,0.0,19.0
Kenai,US,1609878087,60.5544,-151.2583,-2.7799999999999727,1.0,79.0
Bayan,CN,1609878087,46.0833,127.4,-24.299999999999983,100.0,90.0
Segezha,RU,1609877976,63.7415,34.3222,-10.859999999999957,97.0,96.0
Mossamedes,AO,1609878088,-15.1961,12.1522,22.810000000000002,99.0,72.0
Khoy,IR,1609878088,38.5504,44.9535,-2.7099999999999795,1.0,86.0
Cortez,US,1609878088,37.3489,-108.5859,6.0,75.0,41.0
Dingle,PH,1609878089,10.9995,122.6711,23.810000000000002,95.0,90.0
Syamzha,RU,1609878089,60.0158,41.0614,-7.92999999999995,92.0,97.0
Yel'nya,RU,1609878089,54.5786,33.1837,-2.359999999999957,100.0,98.0
Asău,RO,1609878089,46.4333,26.4,4.439999999999998,100.0,73.0
Yar-Sale,RU,1609878090,66.8333,70.8333,-25.72999999999999,24.0,88.0
Coquimbo,CL,1609878090,-29.9533,-71.3436,19.0,40.0,68.0
Emerald,AU,1609878091,-23.5333,148.1667,26.0,100.0,83.0
Cloppenburg,DE,1609878091,52.85,8.0333,3.330000000000041,100.0,92.0
Yinchuan,CN,1609878091,38.4681,106.2731,-11.789999999999964,0.0,58.0
Agua Verde,MX,1609878092,22.9,-106.05,26.110000000000014,0.0,76.0
Virginia Beach,US,1609878011,36.8529,-75.978,10.0,75.0,53.0
Rio Grande,BR,1609877871,-32.035,-52.0986,25.0,20.0,88.0
Palmer,US,1609877938,42.1584,-72.3287,4.0,75.0,60.0
Liubar,UA,1609878093,49.9204,27.7592,0.5600000000000023,100.0,97.0
Deputatsky,RU,1609878093,69.3,139.9,-32.52999999999997,0.0,84.0
